{"Html_attributions":[],"Next_page_token":"CrQCKQEAAIoDi1x_nAjySo4_-78aWkIx1PmANTpAE8VQq5YI59mr7uthZku9leDIxnIaWGnJcuz-o9oHd7QDAboPzrnagQ5xoCay6QUqcHcAguNF7IqghH6yR8RElIvWPKHjLZa-HYQ-1RjydtQYzHmjrt-NTTzAc-O8Plo3SKDfQmkkFINbgd8-fDZrb83xiCFXwMsxT3OntVaHjoyhoMqDBZsydpYi4GTfeOL9LFhlCwdEstrbrnvAgELnZov5axzUoTNmOxWxPcFQvInSoAssNDcR5m9PtyQqJxnBQ6tqEuxZOcpSTsR1qIWqo6ZEoS3MxxXX470-jJaQ2aRY2c_U94efJUakWGGitmKzw6MasDbL4PX9rqPLJ2Lo9MmI9pLruzXSnbGD9cn3Bwsh1Y31ILfsPdcSECNSZO09vZquZsyr3u3ODSoaFN_SW_n-zxqcvzoPGgwRKdJx5OLA","Results":[{"Geometry":{"Location":{"Lat":51.2181003,"Lng":4.4088175},"Viewport":{"Northeast":{"Lat":51.2194487802915,"Lng":4.4101161802915012},"Southwest":{"Lat":51.2167508197085,"Lng":4.4074182197084966}}},"Id":"3239c80bdeff16d813a15b29325da33a127d74ad","Name":"Meir Antwerpen","Photos":[{"Height":3120,"Html_attributions":["<a href=\"https://maps.google.com/maps/contrib/117057412122275078050/photos\">Amrit Srivastava</a>"],"Photo_reference":"CmRaAAAAAiUae99X56cU19qZs_lofQ7PChdCGk5Jgh3oqp7EuxmnmkikCuBRbNIngD-z5iyHx2bFHH5qcCfK1P_8-WZPHQgCBTHVxJMidt7dC59cwEBGeDWEzcICNZLajzd1zAh9EhCNiepnoDy9C7pO_GJsLNSgGhSJV6yvrA_g35RXBxSoYiCZdYLfrA","Width":4160}],"Place_id":"ChIJJUt3ybH3w0cRZmJr0qtoCdY","Vicinity":"Meir 51, Antwerpen"},{"Geometry":{"Location":{"Lat":51.2181003,"Lng":4.4088175},"Viewport":{"Northeast":{"Lat":51.2194487802915,"Lng":4.4101161802915012},"Southwest":{"Lat":51.2167508197085,"Lng":4.4074182197084966}}},"Id":"c2cfdd20d97a1d94ba0ab8298098d80025cd7067","Name":"Café Imperial","Photos":[{"Height":2422,"Html_attributions":["<a href=\"https://maps.google.com/maps/contrib/113999618415132124566/photos\">Diane Gielen</a>"],"Photo_reference":"CmRaAAAAvdQcQ-OOiiDDZDsjXyIGxtkk22TT-Y-jKxqktTQDKsNyz_swNtYFZ0Ki4WEQQG9_m8oAJFGw9rFwP7DAKzsfDpgvc6lJezLwZHGs8mrJ0PJxtmrVBMmB_7heAN8rjVUTEhDyVWr_N5R5btzT16Iq62tQGhSKPivIJ7uNpaYSty4Qs7tl_K8Fwg","Width":4385}],"Place_id":"ChIJi5Aoavn2w0cR7JXMFGxNAeA","Vicinity":"Meir, Antwerpen"},{"Geometry":{"Location":{"Lat":51.2181003,"Lng":4.4088175},"Viewport":{"Northeast":{"Lat":51.2194487802915,"Lng":4.4101161802915012},"Southwest":{"Lat":51.2167508197085,"Lng":4.4074182197084966}}},"Id":"888174b1f54abc04a781817e11281c02b173de89","Name":"Statue of Anthony Van Dyke","Photos":[{"Height":660,"Html_attributions":["<a href=\"https://maps.google.com/maps/contrib/114253901493415385965/photos\">Олег Покровский</a>"],"Photo_reference":"CmRaAAAAZ4H65GdD7TitFf9RUvkkR0uTisBdAmXYLggP4J327GIsyC6HZGdTxBqYxITyozELtf1Cw-0uPnjpsgjh4P5VDA1eXGHqNyk4as53nwdiwEXMUGOq9dqPiSC6BXwvhfSrEhBP2n3326WqhO25qYtlCmW8GhQc10fwK4DL1703fNwuzFaNDxJyrw","Width":440}],"Place_id":"ChIJ8XCYUZP3w0cREYGvs2_mwSY","Vicinity":"Meir, Antwerpen"},{"Geometry":{"Location":{"Lat":51.2181931,"Lng":4.4089756},"Viewport":{"Northeast":{"Lat":51.219495680291487,"Lng":4.410245530291502},"Southwest":{"Lat":51.2167977197085,"Lng":4.4075475697084974}}},"Id":"1aa8031234aa10ef53b56e228b4f5d88a9adbc75","Name":"JD Sports","Photos":[{"Height":2160,"Html_attributions":["<a href=\"https://maps.google.com/maps/contrib/109991902747940877682/photos\">MissSJ</a>"],"Photo_reference":"CmRaAAAAfERdmelHska6-3I6LveeQw2ka96gltkKha6Mc7O5V1GujF6cNMQYY0NPKUgvcSeK4_naBnpBCv_zGDCIzYGWiMC4p2HX9zmctfx-QxddlV3K90WZLfd7W8qzhkYCMR2mEhBvf2oc9HT_ixPoQhjFkpeOGhT8XsLamZY1Ce_svyu2V14TT3-UwA","Width":3840}],"Place_id":"ChIJh7y1Qfn2w0cRt2awwRMxu6M","Vicinity":"Meir 59, Antwerpen"},{"Geometry":{"Location":{"Lat":51.2179714,"Lng":4.4086034000000014},"Viewport":{"Northeast":{"Lat":51.2193905802915,"Lng":4.4100609802915018},"Southwest":{"Lat":51.2166926197085,"Lng":4.4073630197084972}}},"Id":"c7dbb9ace83677a3312e430631b3952e2ddb7684","Name":"Flamant Home Interiors","Photos":[{"Height":3864,"Html_attributions":["<a href=\"https://maps.google.com/maps/contrib/105597958728952081912/photos\">Daniel Kupper</a>"],"Photo_reference":"CmRaAAAAnbT5K3DZilXeTSQEainCOw8b6XaZwAFGyuhwS6iHmrHM8vT7TNMof339KgmnsKZKAzg4rf8IIbc2gUgl5MfMZLL5--_7jDhb24tBq1lGaWTif_RhW9r3Xop35xq2r5JhEhDBNl24wUkBs_1Wd1t6rov5GhTG1zbzoI8AJTgOW198l_9GJHO1_g","Width":5152}],"Place_id":"ChIJKytRavn2w0cRvgiRnP-ZKu0","Vicinity":"Meir 50, Antwerpen"},{"Geometry":{"Location":{"Lat":51.2182779,"Lng":4.4086799},"Viewport":{"Northeast":{"Lat":51.2195375802915,"Lng":4.4100976802915017},"Southwest":{"Lat":51.2168396197085,"Lng":4.4073997197084971}}},"Id":"e9c4b6944908b0eb458637625394e392c782c146","Name":"Calzedonia","Photos":[{"Height":4032,"Html_attributions":["<a href=\"https://maps.google.com/maps/contrib/110408732289646644103/photos\">Shui Ying Lam</a>"],"Photo_reference":"CmRaAAAAYiood9uR5i015GW0314uRbii-uNerJbsCuRUd43QNb-EcMvr28C3CSY1DoWymc1-H3BaGI1eA2WRv3ie-1MVzYfQaEK8UsqQWBl0e-HWO7lhpAjlzaNyGez-sO2SkAX2EhBgXgLLb1kyGj6GSuI7FcWLGhSp-2vj7GBf_TdsveSLUfVoPMUHGg","Width":1960}],"Place_id":"ChIJ7ZbR-Oz3w0cRH9JdOHfgf4s","Vicinity":"Meir 53, Antwerpen"},{"Geometry":{"Location":{"Lat":51.21826,"Lng":4.40863},"Viewport":{"Northeast":{"Lat":51.2195286302915,"Lng":4.4100727302915006},"Southwest":{"Lat":51.2168306697085,"Lng":4.4073747697084977}}},"Id":"c8dd2c655aaac548da9a532ee653191e953ca3f5","Name":"Holland & Barrett","Photos":[{"Height":2358,"Html_attributions":["<a href=\"https://maps.google.com/maps/contrib/117014479760196230247/photos\">Pablo Vicente</a>"],"Photo_reference":"CmRaAAAAmHSOyqkEj0umGG044mhD7SWVsdfjGQ9bViO5tR7ouKcARN6evoUXqNsiOCCnKXJz3rhndR-kh2oDd9__Ej44C50uv-mn8Uj1NXbTfb-YrqYntuAXge1_38OLe4eJnwMNEhDZQ-lwPWS9dNs-5aE9klBmGhTHjoRZ22HDivN8566xU5gDEI_iPw","Width":4191}],"Place_id":"ChIJ05SbkGn3w0cRrdxDs5sPuvc","Vicinity":"Meir 51, Antwerpen"},{"Geometry":{"Location":{"Lat":51.218191100000013,"Lng":4.409106},"Viewport":{"Northeast":{"Lat":51.2194892802915,"Lng":4.4103107302915019},"Southwest":{"Lat":51.2167913197085,"Lng":4.4076127697084972}}},"Id":"b13f71e1d6b85fd2846f472ee156891c8a15e569","Name":"Scamm","Photos":[{"Height":4032,"Html_attributions":["<a href=\"https://maps.google.com/maps/contrib/110408732289646644103/photos\">Shui Ying Lam</a>"],"Photo_reference":"CmRaAAAAJULORg9snD8YtDcADZboTOLAXJd7Oz5t0MccjDUUhag4R4jKdPrk89tu0ZncZZG4fnnvqAkHdYS1oUX2RTZ-rQZM1j6KBqsUnh9Zu6wCo9IBLDCJL4XhrrwS6XKpxZ-1EhCJdK0lXKbKlFMN1RJzBtxcGhSBMM3q9YaW1HwQ0QqOmXR2vTjItg","Width":1960}],"Place_id":"ChIJN1cMmTv3w0cRDlm04fkrlRo","Vicinity":"Meir 61, Antwerpen"},{"Geometry":{"Location":{"Lat":51.2181003,"Lng":4.4088175},"Viewport":{"Northeast":{"Lat":51.2194487802915,"Lng":4.4101161802915012},"Southwest":{"Lat":51.2167508197085,"Lng":4.4074182197084966}}},"Id":"5d7acd2bfe77312656111499cbf39313bf7d7ccc","Name":"Romcore","Photos":null,"Place_id":"ChIJa8KUm_n2w0cR-6h9b5G0AFA","Vicinity":"Meir, Antwerpen"},{"Geometry":{"Location":{"Lat":51.2181003,"Lng":4.4088175},"Viewport":{"Northeast":{"Lat":51.2194487802915,"Lng":4.4101161802915012},"Southwest":{"Lat":51.2167508197085,"Lng":4.4074182197084966}}},"Id":"7c9697f7a2132c02f20a3e014dd50b9cd4ace3bf","Name":"Bourgondisch wonen","Photos":null,"Place_id":"ChIJb-7XwPn2w0cRmN0fiSfHS_M","Vicinity":"Meir, Antwerpen"},{"Geometry":{"Location":{"Lat":51.2181003,"Lng":4.4088175},"Viewport":{"Northeast":{"Lat":51.2194487802915,"Lng":4.4101161802915012},"Southwest":{"Lat":51.2167508197085,"Lng":4.4074182197084966}}},"Id":"939daa64236d4e5fce112b7b5ede82092e944883","Name":"Koning Noord","Photos":null,"Place_id":"ChIJNS376Pn2w0cRruu7eFj8cAg","Vicinity":"Meir, Antwerpen"},{"Geometry":{"Location":{"Lat":51.2181003,"Lng":4.4088175},"Viewport":{"Northeast":{"Lat":51.2194487802915,"Lng":4.4101161802915012},"Southwest":{"Lat":51.2167508197085,"Lng":4.4074182197084966}}},"Id":"5d72eea022f021fba38ffee84750cbc43307123e","Name":"Este","Photos":null,"Place_id":"ChIJi5Aoavn2w0cRTEun1rGLCAA","Vicinity":"Meir, Antwerpen"},{"Geometry":{"Location":{"Lat":51.2181003,"Lng":4.4088175},"Viewport":{"Northeast":{"Lat":51.2194487802915,"Lng":4.4101161802915012},"Southwest":{"Lat":51.2167508197085,"Lng":4.4074182197084966}}},"Id":"f727a821ac32a206a42807f36a885bbae4715007","Name":"Interieur winkel","Photos":null,"Place_id":"ChIJi5Aoavn2w0cRHB1Pm8WfUH0","Vicinity":"Meir, Antwerpen"},{"Geometry":{"Location":{"Lat":51.218109299999988,"Lng":4.4088831},"Viewport":{"Northeast":{"Lat":51.2194537802915,"Lng":4.4102167802915018},"Southwest":{"Lat":51.2167558197085,"Lng":4.4075188197084971}}},"Id":"63a348592cb35d6cdc84989df2e7aea875a63415","Name":"Ippa Spaarbank N. v.","Photos":null,"Place_id":"ChIJ_za1Qfn2w0cRbQ92hlH7Tdw","Vicinity":"Meir 59, Antwerpen"},{"Geometry":{"Location":{"Lat":51.218100799999988,"Lng":4.4086141},"Viewport":{"Northeast":{"Lat":51.219449030291493,"Lng":4.4100647802915027},"Southwest":{"Lat":51.216751069708494,"Lng":4.4073668197084981}}},"Id":"7b256e77b8735366b9c85c76d83bff48e22470e1","Name":"Alexis Bvba","Photos":null,"Place_id":"ChIJKytRavn2w0cRw3edLTriggY","Vicinity":"Meir 50, Antwerpen"},{"Geometry":{"Location":{"Lat":51.2182709,"Lng":4.4087981999999988},"Viewport":{"Northeast":{"Lat":51.2195340802915,"Lng":4.4101161802915012},"Southwest":{"Lat":51.2168361197085,"Lng":4.4074182197084966}}},"Id":"6f9375967c7a3c0a1ed4222b7bd4ea14859be2e1","Name":"Spacified","Photos":null,"Place_id":"ChIJaXB_avn2w0cRAi0zO7pzmlU","Vicinity":"Meir 57, Antwerpen"},{"Geometry":{"Location":{"Lat":51.2179714,"Lng":4.4086034000000014},"Viewport":{"Northeast":{"Lat":51.2193905802915,"Lng":4.4100609802915018},"Southwest":{"Lat":51.2166926197085,"Lng":4.4073630197084972}}},"Id":"c8fc17bb09769f8ae662b119c0fae23c80e48cb5","Name":"Flamant Antwerpen","Photos":null,"Place_id":"ChIJh6IFeJv3w0cRwIo_MeCgAGI","Vicinity":"Koetshuis van het Paleis op de Meir, Meir 50, Antwerpen"},{"Geometry":{"Location":{"Lat":51.2179714,"Lng":4.4086034000000014},"Viewport":{"Northeast":{"Lat":51.2193905802915,"Lng":4.4100609802915018},"Southwest":{"Lat":51.2166926197085,"Lng":4.4073630197084972}}},"Id":"9d2d5b8ef4a2d324c6e0a0752e87287d8f70457b","Name":"De Kamers","Photos":null,"Place_id":"ChIJpRrL7AX3w0cR1jq03Jq-Z0s","Vicinity":"Meir 50, Antwerpen"},{"Geometry":{"Location":{"Lat":51.2181587,"Lng":4.4091274},"Viewport":{"Northeast":{"Lat":51.219472630291492,"Lng":4.4103214302915026},"Southwest":{"Lat":51.2167746697085,"Lng":4.4076234697084979}}},"Id":"5f54de1b3611f36ebc22616e63be8ce35d9200f4","Name":"Nts Belgium","Photos":null,"Place_id":"ChIJ5-zFQPn2w0cRhzWf2bcz7UU","Vicinity":"Meir 61, Antwerpen"},{"Geometry":{"Location":{"Lat":51.2181587,"Lng":4.4091274},"Viewport":{"Northeast":{"Lat":51.219472630291492,"Lng":4.4103214302915026},"Southwest":{"Lat":51.2167746697085,"Lng":4.4076234697084979}}},"Id":"22da6ccba1a0135f43bff31a4a7cedf29669e61d","Name":"Pop-up Store Antwerpen - Fred de la Bretoniere & Shabbies Amsterdam","Photos":null,"Place_id":"ChIJw32m_lD3w0cR62PGB5byoWw","Vicinity":"Meir 61/63, Antwerpen"}]}