{"Html_attributions":[],"Next_page_token":"CqQCHQEAAOJxRn7dm18SPtHqV5E0G5TMnzAiecMDK9ZTbovP94Myi4QNIvSM7M96YLXxujmWUCr9OfV4j2fumdHdD8VGziLXys-2Ss8Pxz8gE4mwjYPTkPE5W5TV2N5vnZLHiktIMDKPHk1qZ2fVbXLq5kRKInvHVY1tHrmmuSGXbcfKMzhOc8TNZ5cAxFrlDK8RzoX2yUVzQxEMxHAdGiryzDOElBJF2G6X1LdMO8tuUZmQEF2hsRgAU8kfjDVOnBRdCASr7BWMsfzTruao-pa74OpcHyUBdhjPlOwvSuIcORkUpLFB8ccpa60aChGs4gO9C5cJc4qrJ7iOUltmFTPUBgFB5UUQBJpWtIp_hEdKBOxX41sE3VsVxmFK-620ajxowmdW7hIQJnmcWVrrcJ7weD-zPa1QERoUf-9p6Bpx1ZAr2IpQ3XbbyOrA8TU","Results":[{"Geometry":{"Location":{"Lat":51.2181003,"Lng":4.4088175},"Viewport":{"Northeast":{"Lat":51.2194487802915,"Lng":4.4101161802915012},"Southwest":{"Lat":51.2167508197085,"Lng":4.4074182197084966}}},"Id":"3239c80bdeff16d813a15b29325da33a127d74ad","Name":"Meir Antwerpen","Photos":[{"Height":3120,"Html_attributions":["<a href=\"https://maps.google.com/maps/contrib/117057412122275078050/photos\">Amrit Srivastava</a>"],"Photo_reference":"CmRaAAAAsVqPN-jzwX2IlOnXVh1J7q6TW806cvzRhLTkycuq2HXXDV8CXQy6VGxq3WP748Q9_X5hP1FQ8rL5yE1Pa_Vw9aiAwvCxJ4wgQxhLnEkO9QLzqc2RFhvjudHmo5ysGV1NEhBDW8rL9T2ekXKuCLfs7-soGhQW3RVoUO5zOpAJ3165Bv2hbb4bYg","Width":4160}],"Place_id":"ChIJJUt3ybH3w0cRZmJr0qtoCdY","Vicinity":"Meir 51, Antwerpen"},{"Geometry":{"Location":{"Lat":51.2181003,"Lng":4.4088175},"Viewport":{"Northeast":{"Lat":51.2194487802915,"Lng":4.4101161802915012},"Southwest":{"Lat":51.2167508197085,"Lng":4.4074182197084966}}},"Id":"888174b1f54abc04a781817e11281c02b173de89","Name":"Statue of Anthony Van Dyke","Photos":[{"Height":660,"Html_attributions":["<a href=\"https://maps.google.com/maps/contrib/114253901493415385965/photos\">Олег Покровский</a>"],"Photo_reference":"CmRaAAAAlKRDLkt_mdX8aKxS3yoaW1CVCgk4Z9Bg3z3wcZXWjV9GerIjZQLD7UO6sbIHxTkKUxbNxL9xZjRE5SfCZKSkxVL9sIWQGmiW5CUWC5uUV1beDIzmP_V6acltKYiOmdKUEhDy51O7x_qna06J0H9um2S8GhRnAx0JVdz5Af86ttVLlumwyZg6Wg","Width":440}],"Place_id":"ChIJ8XCYUZP3w0cREYGvs2_mwSY","Vicinity":"Meir, Antwerpen"},{"Geometry":{"Location":{"Lat":51.2181003,"Lng":4.4088175},"Viewport":{"Northeast":{"Lat":51.2194487802915,"Lng":4.4101161802915012},"Southwest":{"Lat":51.2167508197085,"Lng":4.4074182197084966}}},"Id":"c2cfdd20d97a1d94ba0ab8298098d80025cd7067","Name":"Café Imperial","Photos":[{"Height":2422,"Html_attributions":["<a href=\"https://maps.google.com/maps/contrib/113999618415132124566/photos\">Diane Gielen</a>"],"Photo_reference":"CmRaAAAACy8hMPmo3nfVWvhrVtlqH6hzIO_95Tza5wezpeNiwQ29JKS5Tej01EHEtUJIEa0d4TUIJWv0tw-bYf34lZUJc2Ll-nKtqMDfeo__5OlrOMrtEUV83FGRlj6eyy2XLKP0EhBn5aSO1waeeli0AApotm9VGhQGhDXhnF5kFZVyl_lxkeyP-zWHcw","Width":4385}],"Place_id":"ChIJi5Aoavn2w0cR7JXMFGxNAeA","Vicinity":"Meir, Antwerpen"},{"Geometry":{"Location":{"Lat":51.2181931,"Lng":4.4089756},"Viewport":{"Northeast":{"Lat":51.219495680291487,"Lng":4.410245530291502},"Southwest":{"Lat":51.2167977197085,"Lng":4.4075475697084974}}},"Id":"1aa8031234aa10ef53b56e228b4f5d88a9adbc75","Name":"JD Sports","Photos":[{"Height":2160,"Html_attributions":["<a href=\"https://maps.google.com/maps/contrib/109991902747940877682/photos\">MissSJ</a>"],"Photo_reference":"CmRaAAAAAIymGwxDD180hoPuBmYY5O4JCSg8PLHk6O6pFjLgFQtMMH1r_6dGLDKQrMeVw6Y5ZOl5F_lKtWpEv-6Abr3g_j7iGa4qvaRkknDYt8fEKop1BmyVd5pqvg7gC3I4RBZWEhDvbAyXByqNvy2300IB4JDYGhQzO92KZ4XqPSP2OKU8V4v56UNwhw","Width":3840}],"Place_id":"ChIJh7y1Qfn2w0cRt2awwRMxu6M","Vicinity":"Meir 59, Antwerpen"},{"Geometry":{"Location":{"Lat":51.2179714,"Lng":4.4086034000000014},"Viewport":{"Northeast":{"Lat":51.2193905802915,"Lng":4.4100609802915018},"Southwest":{"Lat":51.2166926197085,"Lng":4.4073630197084972}}},"Id":"c7dbb9ace83677a3312e430631b3952e2ddb7684","Name":"Flamant Home Interiors","Photos":[{"Height":3864,"Html_attributions":["<a href=\"https://maps.google.com/maps/contrib/105597958728952081912/photos\">Daniel Kupper</a>"],"Photo_reference":"CmRaAAAAxOt7EfsCqFcNtxQLqGVJuY3qPIrwQkZ88OquuG1nkNGDc2rAaqYehWjnjAfSJhoZaGXcHMERyj0d7arzhhX4fQ5EGPPsEh69JiEPDcnimxVBpirFXsj6DHTn9KUgpNfSEhBw4zrQm4AbjLr56B6BfvqtGhTKEzo8GhU8F3HlHqu_4ysiQWRjsA","Width":5152}],"Place_id":"ChIJKytRavn2w0cRvgiRnP-ZKu0","Vicinity":"Meir 50, Antwerpen"},{"Geometry":{"Location":{"Lat":51.2182779,"Lng":4.4086799},"Viewport":{"Northeast":{"Lat":51.2195375802915,"Lng":4.4100976802915017},"Southwest":{"Lat":51.2168396197085,"Lng":4.4073997197084971}}},"Id":"e9c4b6944908b0eb458637625394e392c782c146","Name":"Calzedonia","Photos":[{"Height":4032,"Html_attributions":["<a href=\"https://maps.google.com/maps/contrib/110408732289646644103/photos\">Shui Ying Lam</a>"],"Photo_reference":"CmRaAAAAthDiYidm1_qIC5FHBeok5JLQJq1vx7IIeClaKtNWU3EEuA5o39tTVBAI2Sx96KqeZx20P2gPS74J0luoqeIFrDTaBMZL8gchF45bSJbWp2Cn46YjzMwq8TD51Oc_Y8AdEhCLHpJCWqVdPn6O0v8R_KdQGhQehH13R_Z6JxXeXAxiHYJk_MH0GA","Width":1960}],"Place_id":"ChIJ7ZbR-Oz3w0cRH9JdOHfgf4s","Vicinity":"Meir 53, Antwerpen"},{"Geometry":{"Location":{"Lat":51.21826,"Lng":4.40863},"Viewport":{"Northeast":{"Lat":51.2195286302915,"Lng":4.4100727302915006},"Southwest":{"Lat":51.2168306697085,"Lng":4.4073747697084977}}},"Id":"c8dd2c655aaac548da9a532ee653191e953ca3f5","Name":"Holland & Barrett","Photos":[{"Height":2358,"Html_attributions":["<a href=\"https://maps.google.com/maps/contrib/117014479760196230247/photos\">Pablo Vicente</a>"],"Photo_reference":"CmRaAAAA5krrTAuy4oOPGP3BIwt3rECk1O8RgNtFeuCrt22kZI5VPRiWjNcXJR95SbED3W2yVcyUXBVx31x0uXECLxqEOSuxcVRBqtG-aDICK1uCOjTcPXDbnoJndaiQ0CWmlAG7EhCqwU7ts63YoAnct-CiWJpQGhTt8KAexrsCNQshcje20UF13XnWlQ","Width":4191}],"Place_id":"ChIJ05SbkGn3w0cRrdxDs5sPuvc","Vicinity":"Meir 51, Antwerpen"},{"Geometry":{"Location":{"Lat":51.218191100000013,"Lng":4.409106},"Viewport":{"Northeast":{"Lat":51.2194892802915,"Lng":4.4103107302915019},"Southwest":{"Lat":51.2167913197085,"Lng":4.4076127697084972}}},"Id":"b13f71e1d6b85fd2846f472ee156891c8a15e569","Name":"Scamm","Photos":[{"Height":4032,"Html_attributions":["<a href=\"https://maps.google.com/maps/contrib/110408732289646644103/photos\">Shui Ying Lam</a>"],"Photo_reference":"CmRaAAAA9bn0l_V3Pf7_9mNpN_c-IqA6Zek3KTKelMFA94Sl0UlOSOLKoXay4jgWSetphxdvvCyTFW19R3AHZn6jWk2m9SOsdvuHCsIBGgkNwT4N-XJPtXjYm_94MEW8IB6IgcjvEhCQrEOlUa6FKwmXFeLh8JtQGhQA4ThyzvGRX-DvrXPgr4eAkKNENg","Width":1960}],"Place_id":"ChIJN1cMmTv3w0cRDlm04fkrlRo","Vicinity":"Meir 61, Antwerpen"},{"Geometry":{"Location":{"Lat":51.2181003,"Lng":4.4088175},"Viewport":{"Northeast":{"Lat":51.2194487802915,"Lng":4.4101161802915012},"Southwest":{"Lat":51.2167508197085,"Lng":4.4074182197084966}}},"Id":"939daa64236d4e5fce112b7b5ede82092e944883","Name":"Koning Noord","Photos":null,"Place_id":"ChIJNS376Pn2w0cRruu7eFj8cAg","Vicinity":"Meir, Antwerpen"},{"Geometry":{"Location":{"Lat":51.2181003,"Lng":4.4088175},"Viewport":{"Northeast":{"Lat":51.2194487802915,"Lng":4.4101161802915012},"Southwest":{"Lat":51.2167508197085,"Lng":4.4074182197084966}}},"Id":"5d7acd2bfe77312656111499cbf39313bf7d7ccc","Name":"Romcore","Photos":null,"Place_id":"ChIJa8KUm_n2w0cR-6h9b5G0AFA","Vicinity":"Meir, Antwerpen"},{"Geometry":{"Location":{"Lat":51.2181003,"Lng":4.4088175},"Viewport":{"Northeast":{"Lat":51.2194487802915,"Lng":4.4101161802915012},"Southwest":{"Lat":51.2167508197085,"Lng":4.4074182197084966}}},"Id":"f727a821ac32a206a42807f36a885bbae4715007","Name":"Interieur winkel","Photos":null,"Place_id":"ChIJi5Aoavn2w0cRHB1Pm8WfUH0","Vicinity":"Meir, Antwerpen"},{"Geometry":{"Location":{"Lat":51.2181003,"Lng":4.4088175},"Viewport":{"Northeast":{"Lat":51.2194487802915,"Lng":4.4101161802915012},"Southwest":{"Lat":51.2167508197085,"Lng":4.4074182197084966}}},"Id":"5d72eea022f021fba38ffee84750cbc43307123e","Name":"Este","Photos":null,"Place_id":"ChIJi5Aoavn2w0cRTEun1rGLCAA","Vicinity":"Meir, Antwerpen"},{"Geometry":{"Location":{"Lat":51.2181003,"Lng":4.4088175},"Viewport":{"Northeast":{"Lat":51.2194487802915,"Lng":4.4101161802915012},"Southwest":{"Lat":51.2167508197085,"Lng":4.4074182197084966}}},"Id":"7c9697f7a2132c02f20a3e014dd50b9cd4ace3bf","Name":"Bourgondisch wonen","Photos":null,"Place_id":"ChIJb-7XwPn2w0cRmN0fiSfHS_M","Vicinity":"Meir, Antwerpen"},{"Geometry":{"Location":{"Lat":51.218109299999988,"Lng":4.4088831},"Viewport":{"Northeast":{"Lat":51.2194537802915,"Lng":4.4102167802915018},"Southwest":{"Lat":51.2167558197085,"Lng":4.4075188197084971}}},"Id":"63a348592cb35d6cdc84989df2e7aea875a63415","Name":"Ippa Spaarbank N. v.","Photos":null,"Place_id":"ChIJ_za1Qfn2w0cRbQ92hlH7Tdw","Vicinity":"Meir 59, Antwerpen"},{"Geometry":{"Location":{"Lat":51.218100799999988,"Lng":4.4086141},"Viewport":{"Northeast":{"Lat":51.219449030291493,"Lng":4.4100647802915027},"Southwest":{"Lat":51.216751069708494,"Lng":4.4073668197084981}}},"Id":"7b256e77b8735366b9c85c76d83bff48e22470e1","Name":"Alexis Bvba","Photos":null,"Place_id":"ChIJKytRavn2w0cRw3edLTriggY","Vicinity":"Meir 50, Antwerpen"},{"Geometry":{"Location":{"Lat":51.2182709,"Lng":4.4087981999999988},"Viewport":{"Northeast":{"Lat":51.2195340802915,"Lng":4.4101161802915012},"Southwest":{"Lat":51.2168361197085,"Lng":4.4074182197084966}}},"Id":"6f9375967c7a3c0a1ed4222b7bd4ea14859be2e1","Name":"Spacified","Photos":null,"Place_id":"ChIJaXB_avn2w0cRAi0zO7pzmlU","Vicinity":"Meir 57, Antwerpen"},{"Geometry":{"Location":{"Lat":51.2179714,"Lng":4.4086034000000014},"Viewport":{"Northeast":{"Lat":51.2193905802915,"Lng":4.4100609802915018},"Southwest":{"Lat":51.2166926197085,"Lng":4.4073630197084972}}},"Id":"c8fc17bb09769f8ae662b119c0fae23c80e48cb5","Name":"Flamant Antwerpen","Photos":null,"Place_id":"ChIJh6IFeJv3w0cRwIo_MeCgAGI","Vicinity":"Koetshuis van het Paleis op de Meir, Meir 50, Antwerpen"},{"Geometry":{"Location":{"Lat":51.2179714,"Lng":4.4086034000000014},"Viewport":{"Northeast":{"Lat":51.2193905802915,"Lng":4.4100609802915018},"Southwest":{"Lat":51.2166926197085,"Lng":4.4073630197084972}}},"Id":"9d2d5b8ef4a2d324c6e0a0752e87287d8f70457b","Name":"De Kamers","Photos":null,"Place_id":"ChIJpRrL7AX3w0cR1jq03Jq-Z0s","Vicinity":"Meir 50, Antwerpen"},{"Geometry":{"Location":{"Lat":51.2181587,"Lng":4.4091274},"Viewport":{"Northeast":{"Lat":51.219472630291492,"Lng":4.4103214302915026},"Southwest":{"Lat":51.2167746697085,"Lng":4.4076234697084979}}},"Id":"5f54de1b3611f36ebc22616e63be8ce35d9200f4","Name":"Nts Belgium","Photos":null,"Place_id":"ChIJ5-zFQPn2w0cRhzWf2bcz7UU","Vicinity":"Meir 61, Antwerpen"},{"Geometry":{"Location":{"Lat":51.2181587,"Lng":4.4091274},"Viewport":{"Northeast":{"Lat":51.219472630291492,"Lng":4.4103214302915026},"Southwest":{"Lat":51.2167746697085,"Lng":4.4076234697084979}}},"Id":"22da6ccba1a0135f43bff31a4a7cedf29669e61d","Name":"Pop-up Store Antwerpen - Fred de la Bretoniere & Shabbies Amsterdam","Photos":null,"Place_id":"ChIJw32m_lD3w0cR62PGB5byoWw","Vicinity":"Meir 61/63, Antwerpen"}]}